City_ID,City,Lat,Lng,Max Temp,Humidity,Cloudiness,Wind Speed,Country,Date
0,natal,-5.795,-35.2094,26.12,89,20,3.09,BR,1717204741
1,port-aux-francais,-49.35,70.2167,5.48,83,100,14.81,TF,1717205293
2,ghadamis,30.1337,9.5007,27.69,15,4,1.25,LY,1717205353
3,yellowknife,62.456,-114.3525,10.29,53,100,7.2,CA,1717205133
4,le port,-20.9373,55.2919,21.0,70,34,3.7,RE,1717205172
5,margate,51.3813,1.3862,12.15,78,100,4.02,GB,1717205354
6,severnoye,56.3491,78.3619,4.43,71,100,3.58,RU,1717205354
7,grytviken,-54.2811,-36.5092,-3.6,79,92,9.8,GS,1717205292
8,kodiak,57.79,-152.4072,6.73,87,100,6.17,US,1717205327
9,port elizabeth,-33.918,25.5701,14.16,99,100,2.24,ZA,1717205299
10,bratsk,56.1325,101.6142,6.27,81,100,4.42,RU,1717205342
11,opuwo,-18.0607,13.84,10.77,80,0,2.09,NA,1717205355
12,adamstown,-25.066,-130.1015,20.22,63,100,2.56,PN,1717205299
13,jayapura,-2.5333,140.7,30.66,65,58,0.69,ID,1717205355
14,isafjordur,66.0755,-23.124,5.6,73,66,3.62,IS,1717205297
15,kingston,17.997,-76.7936,30.53,62,75,7.2,JM,1717205091
16,saldanha,-33.0117,17.9442,5.03,77,1,1.98,ZA,1717205355
17,waitangi,-43.9535,-176.5597,13.79,90,88,2.24,NZ,1717205298
18,benguela,-12.5763,13.4055,20.39,88,32,1.3,AO,1717205356
19,thompson,55.7435,-97.8558,12.09,66,75,5.66,CA,1717205098
20,enewetak,11.3474,162.3373,27.58,81,99,5.34,MH,1717205356
21,san patricio,28.017,-97.5169,29.97,74,3,5.17,US,1717205356
22,ushuaia,-54.8,-68.3,-1.19,86,0,2.06,AR,1717205294
23,chinde,26.8418,88.0763,20.97,79,4,1.02,NP,1717205356
24,cururupu,-1.8283,-44.8683,22.98,100,70,0.28,BR,1717205222
25,weno,7.4515,151.8468,28.97,89,75,1.54,FM,1717205318
26,hakui,36.8833,136.7833,25.14,72,1,4.11,JP,1717205129
27,west island,-12.1568,96.8225,26.99,89,100,3.09,CC,1717205305
28,lebu,-37.6167,-73.65,11.08,93,30,1.23,CL,1717205310
29,edinburgh of the seven seas,-37.0676,-12.3116,15.41,83,100,16.17,SH,1717205109
30,altai,46.3722,96.2583,13.15,25,99,1.73,MN,1717205357
31,kill devil hills,36.0307,-75.676,19.99,60,0,3.6,US,1717205230
32,qaqortoq,60.7167,-46.0333,0.81,83,99,1.86,GL,1717205319
33,dolisie,-4.1997,12.6739,20.51,93,13,1.73,CG,1717205358
34,alo,7.4178,6.7371,24.83,93,100,1.14,NG,1717205358
35,iqaluit,63.7506,-68.5145,-1.15,68,20,5.66,CA,1717205316
36,albany,42.6001,-73.9662,18.23,42,58,4.99,US,1717205294
37,iskateley,67.6803,53.1512,-2.21,96,14,2.24,RU,1717205333
38,susuman,62.7833,148.1667,1.66,57,100,4.92,RU,1717205293
39,niamey,13.5137,2.1098,33.16,35,0,3.6,NE,1717205359
40,kirensk,57.7853,108.1119,17.76,58,67,2.24,RU,1717205359
41,saipan,15.1355,145.701,32.39,66,40,6.17,MP,1717205297
42,anadyr,64.75,177.4833,6.28,60,40,6.0,RU,1717205319
43,coquimbo,-29.9533,-71.3436,12.85,87,0,6.17,CL,1717205085
44,alice springs,-23.7,133.8833,14.75,55,0,4.12,AU,1717205303
45,trancas,-26.2314,-65.2803,11.05,77,0,1.42,AR,1717204801
46,timmins,48.4669,-81.3331,21.9,28,75,2.57,CA,1717205360
47,pallasovka,50.05,46.8833,21.15,28,100,2.36,RU,1717205360
48,merizo village,13.2658,144.6691,29.99,81,28,4.04,GU,1717205301
49,georgetown,5.4112,100.3354,28.96,79,20,2.06,MY,1717205039
50,beykonak,36.3257,30.303,21.98,65,0,1.35,TR,1717205360
51,avarua,-21.2078,-159.775,24.03,60,75,1.54,CK,1717205215
52,port alfred,-33.5906,26.891,15.1,98,100,11.63,ZA,1717205308
53,neryungri,56.6709,124.6491,19.55,48,11,4.34,RU,1717205361
54,bethel,41.3712,-73.414,19.87,58,0,1.54,US,1717205306
55,jiuquan,39.7432,98.5174,20.67,15,100,5.75,CN,1717205361
56,antonio enes,-16.2325,39.9086,23.81,80,5,2.75,MZ,1717205294
57,bilibino,68.0546,166.4372,10.44,47,62,2.56,RU,1717205294
58,christchurch,-43.5333,172.6333,20.51,41,87,5.14,NZ,1717205241
59,port douglas,-16.4833,145.4667,25.31,74,13,4.37,AU,1717205362
60,sao joao da barra,-21.6403,-41.0511,19.59,86,47,5.11,BR,1717205362
61,ocean shores,46.9737,-124.1563,17.94,79,0,4.63,US,1717205362
62,longyearbyen,78.2186,15.6401,2.91,87,75,2.06,SJ,1717205296
63,ola,59.5833,151.2833,5.63,96,100,3.77,RU,1717205363
64,puerto ayacucho,5.6639,-67.6236,23.81,95,100,2.05,VE,1717205172
65,aasiaat,68.7098,-52.8699,-2.78,74,100,2.04,GL,1717205363
66,ngerengere,-6.75,38.1167,18.87,87,42,1.44,TZ,1717205363
67,upington,-28.4478,21.2561,11.21,37,0,3.6,ZA,1717205363
68,quellon,-43.1167,-73.6167,5.54,82,5,2.06,CL,1717205300
69,bredasdorp,-34.5322,20.0403,9.72,87,6,0.4,ZA,1717205301
70,ust-nera,64.5667,143.2,10.14,24,4,3.05,RU,1717205313
71,saudarkrokur,65.7461,-19.6394,7.9,88,100,6.38,IS,1717205086
72,luderitz,-26.6481,15.1594,10.15,68,0,3.71,NA,1717205326
73,siwa oasis,29.2041,25.5195,28.99,20,0,3.22,EG,1717205364
74,yangjiang,21.85,111.9667,25.02,95,100,7.71,CN,1717205365
75,rosamond,34.8641,-118.1634,33.9,23,0,8.75,US,1717205365
76,diu,20.7141,70.9822,29.9,63,42,4.73,IN,1717205365
77,labe,11.3182,-12.2833,21.66,74,100,2.41,GN,1717205365
78,nar'yan-mar,67.6713,53.087,-2.16,96,15,2.24,RU,1717205316
79,hawaiian paradise park,19.5933,-154.9731,25.73,83,75,6.17,US,1717205312
80,volodarskiy,46.4013,48.5409,17.97,48,100,3.79,RU,1717205365
81,kapuskasing,49.4169,-82.4331,22.0,40,75,5.66,CA,1717205282
82,blackmans bay,-43.0167,147.3167,11.4,64,19,0.45,AU,1717205293
83,atafu village,-8.5421,-172.5159,29.16,75,94,4.07,TK,1717205167
84,groningen,53.25,6.75,16.13,93,100,3.09,NL,1717205366
85,constantia,44.1833,28.65,16.5,79,96,3.69,RO,1717205306
86,invercargill,-46.4,168.35,11.68,88,96,6.71,NZ,1717205294
87,gusinoozyorsk,51.2833,106.5,15.36,56,0,1.52,RU,1717205367
88,olonkinbyen,70.9221,-8.7187,0.65,86,6,7.91,SJ,1717205305
89,jonava,55.0833,24.2833,14.48,97,20,1.54,LT,1717205367
90,afaahiti,-17.75,-149.2833,28.93,61,36,1.27,PF,1717205321
91,yacuiba,-22.038,-63.6797,16.0,66,98,1.76,BO,1717205136
92,betio village,1.358,172.9211,32.02,75,35,5.21,KI,1717205367
93,remire-montjoly,4.9167,-52.2667,26.02,100,0,0.0,GF,1717205321
94,pandan,14.0453,124.1694,29.49,80,51,3.15,PH,1717205368
95,singkil,-7.9855,111.4161,27.62,78,96,2.6,ID,1717205368
96,kourou,5.1552,-52.6478,26.03,94,100,2.16,GF,1717205298
97,fale old settlement,-9.3852,-171.2468,29.12,73,100,4.19,TK,1717205167
98,dogubayazit,39.5469,44.0842,13.28,48,0,1.72,TR,1717205368
99,port lincoln,-34.7333,135.8667,14.07,58,0,3.42,AU,1717205297
100,flying fish cove,-10.4217,105.6791,27.82,78,75,4.63,CX,1717205369
101,aykhal,66.0,111.5,13.55,40,91,13.46,RU,1717205369
102,vadso,70.0744,29.7487,8.49,93,100,2.57,NO,1717205094
103,zimovniki,47.1483,42.4633,16.81,92,100,2.47,RU,1717205369
104,kapa'a,22.0752,-159.319,27.99,78,75,8.23,US,1717205369
105,cold lake,54.4502,-110.2017,7.97,93,100,4.12,CA,1717205369
106,broken hill,-31.95,141.4333,12.06,72,54,6.98,AU,1717205267
107,petropavlovsk-kamchatsky,53.0452,158.6483,8.33,61,75,5.0,RU,1717205370
108,hithadhoo,-0.6,73.0833,29.36,73,100,8.6,MV,1717205370
109,mont-dore,-22.2833,166.5833,26.99,99,43,6.38,NC,1717205370
110,kirov,58.5966,49.6601,13.1,87,0,1.79,RU,1717205252
111,lautoka,-17.6167,177.4667,28.92,54,40,6.69,FJ,1717205370
112,zabaykal'sk,49.6333,117.3167,22.95,22,9,4.64,RU,1717205371
113,margaret river,-33.95,115.0667,20.06,69,70,9.57,AU,1717205295
114,muborak,39.2553,65.1528,23.7,21,0,4.46,UZ,1717205371
115,gizo,-8.103,156.8419,28.65,78,100,2.0,SB,1717205108
116,puerto natales,-51.7236,-72.4875,0.62,93,100,0.92,CL,1717205295
117,keflavik,64.0049,-22.5624,8.95,100,100,8.23,IS,1717205314
118,nova xavantina,-14.6667,-52.35,21.55,50,0,1.5,BR,1717205371
119,castlebar,53.85,-9.3,7.4,95,77,1.68,IE,1717205372
120,hovd,48.0056,91.6419,17.04,24,26,3.55,MN,1717205372
121,yurimaguas,-5.9,-76.0833,25.65,67,100,1.08,PE,1717205372
122,galliano,29.4422,-90.2992,26.0,83,0,3.6,US,1717205372
123,sao martinho,39.5144,-9.1311,18.2,90,6,0.15,PT,1717205372
124,inhambane,-23.865,35.3833,21.71,86,0,3.29,MZ,1717205317
125,badger,64.8,-147.5333,20.14,37,75,3.09,US,1717205293
126,ancud,-41.8697,-73.8203,6.98,75,4,2.58,CL,1717205068
127,prince rupert,54.3161,-130.3201,11.05,87,100,13.38,CA,1717205373
128,holualoa,19.6228,-155.9522,26.91,77,75,5.14,US,1717205373
129,la passe,45.5549,-0.8967,13.88,93,4,4.39,FR,1717205306
130,aldinga beach,-35.2793,138.4604,14.8,60,2,2.15,AU,1717205374
131,pisco,-13.7,-76.2167,17.03,82,100,1.54,PE,1717205042
132,tiksi,71.6872,128.8694,6.95,51,1,5.04,RU,1717205296
133,torbat-e heydariyeh,35.274,59.2195,19.14,18,0,2.34,IR,1717205374
134,dudinka,69.4058,86.1778,-1.85,92,100,2.68,RU,1717205374
135,horta,38.5333,-28.6333,17.79,81,82,8.49,PT,1717205375
136,hermanus,-34.4187,19.2345,9.33,82,0,2.49,ZA,1717205301
137,stanley,54.868,-1.6985,9.87,88,40,2.06,GB,1717205308
138,cestos city,5.46,-9.5828,25.93,88,45,1.83,LR,1717205375
139,mount isa,-20.7333,139.5,15.87,82,75,5.66,AU,1717205375
140,chadron,42.8294,-102.9999,18.87,57,0,3.09,US,1717205375
141,tomohon,1.3346,124.8392,26.52,82,100,0.8,ID,1717205376
142,majie,25.0333,102.6361,15.99,88,100,4.0,CN,1717205376
143,revda,56.801,59.9303,10.0,84,86,3.41,RU,1717205376
144,acapulco de juarez,16.8634,-99.8901,29.9,66,0,4.12,MX,1717205285
145,ribeira grande,38.5167,-28.7,18.21,81,82,8.49,PT,1717205302
146,shamgarh,24.1833,75.6333,28.56,65,0,6.57,IN,1717205376
147,cabedelo,-6.9811,-34.8339,25.37,85,39,4.87,BR,1717205377
148,port mathurin,-19.6833,63.4167,24.43,69,98,12.64,MU,1717205333
149,vorgashor,67.5833,63.95,-5.11,95,100,6.98,RU,1717205377
150,jamestown,42.097,-79.2353,13.8,47,0,0.0,US,1717205315
151,talcahuano,-36.7167,-73.1167,11.82,100,100,2.06,CL,1717205371
152,tolanaro,-25.0319,46.9987,20.04,83,0,5.14,MG,1717205309
153,butner,36.1321,-78.7567,19.39,71,47,0.84,US,1717205281
154,pathein,16.7833,94.7333,29.18,77,55,1.89,MM,1717205378
155,meadow lakes,61.6247,-149.6011,18.62,39,0,4.12,US,1717205378
156,vilyuchinsk,52.9306,158.4028,9.15,90,100,3.41,RU,1717205330
157,letlhakane,-21.4167,25.5833,14.53,43,0,2.35,BW,1717205378
158,magadan,59.5667,150.8,5.29,98,100,1.47,RU,1717205098
159,boende,-0.2167,20.8667,22.64,94,29,0.83,CD,1717205379
160,baneasa,44.0461,26.0642,19.86,82,100,1.03,RO,1717205379
161,punta arenas,-53.15,-70.9167,2.06,93,100,2.57,CL,1717205331
162,puerto ayora,-0.7393,-90.3518,21.42,98,10,2.39,EC,1717205307
163,ivatsevichy,52.709,25.3401,11.43,95,5,2.66,BY,1717205379
164,hammerfest,70.6634,23.6821,6.25,100,100,1.03,NO,1717205332
165,prakhon chai,14.6059,103.1208,27.84,75,100,6.67,TH,1717205380
166,batang,-6.4846,110.7083,28.61,74,91,1.03,ID,1717205380
167,klyuchi,52.2667,79.1667,8.93,53,88,2.32,RU,1717205380
168,ilave,-16.0833,-69.6667,3.35,38,7,1.97,PE,1717205380
169,kegen,43.0197,79.2203,8.73,63,7,2.06,KZ,1717205380
170,ta`u,-14.2336,-169.5144,27.58,78,100,12.19,AS,1717205381
171,kununurra,-15.7667,128.7333,22.99,78,100,4.63,AU,1717205326
172,east london,-33.0153,27.9116,17.33,94,100,11.04,ZA,1717205381
173,whitehorse,60.7161,-135.0538,17.79,25,75,4.12,CA,1717205214
174,wailua homesteads,22.0669,-159.378,27.24,78,75,8.23,US,1717205381
175,walvis bay,-22.9575,14.5053,10.61,76,0,1.54,NA,1717205381
176,kristinestad,62.2743,21.376,14.36,87,100,2.47,FI,1717205381
177,yuzhno-kurilsk,44.0306,145.8556,10.21,59,10,1.51,RU,1717205382
178,hamilton,39.1834,-84.5333,20.47,52,0,2.57,US,1717204961
179,arraial do cabo,-22.9661,-42.0278,22.11,65,100,3.96,BR,1717205327
180,edd,13.9297,41.6925,29.05,72,100,4.72,ER,1717205382
181,monrovia,6.3005,-10.7969,25.87,84,100,1.93,LR,1717205382
182,naze,28.3667,129.4833,22.51,87,100,3.6,JP,1717205382
183,tazovsky,67.4667,78.7,-1.74,96,100,8.03,RU,1717205304
184,weligama,5.9667,80.4167,27.66,85,100,4.91,LK,1717205383
185,udachny,66.4167,112.4,13.58,36,100,10.63,RU,1717205324
186,candelaria,13.9311,121.4233,30.2,76,84,2.14,PH,1717205383
187,oshakati,-17.7833,15.6833,15.01,62,0,4.08,NA,1717205383
188,onguday,50.75,86.15,7.85,79,63,1.1,RU,1717205383
189,porto novo,6.4965,2.6036,27.9,85,73,2.23,BJ,1717205329
190,am timan,11.0297,20.2827,30.39,45,100,1.82,TD,1717205384
191,lusambo,-4.9667,23.45,22.09,86,93,0.87,CD,1717205384
192,severo-yeniseyskiy,60.3725,93.0408,-0.24,92,23,1.79,RU,1717205384
193,la ronge,55.1001,-105.2842,12.14,58,75,5.14,CA,1717205285
194,vernon,50.2581,-119.2691,24.02,33,88,0.89,CA,1717205384
195,bima,-8.4667,118.7167,29.56,72,100,1.78,ID,1717205384
196,kailua-kona,19.6406,-155.9956,28.98,76,75,5.14,US,1717205385
197,sparti,37.0733,22.4297,18.86,59,0,0.63,GR,1717205385
198,tot'ma,59.9747,42.7642,11.63,75,0,1.65,RU,1717205385
199,el calafate,-50.3408,-72.2768,1.15,98,100,0.36,AR,1717205385
200,riosucio,5.4216,-75.7032,15.29,95,100,1.26,CO,1717205385
201,jijiga,9.35,42.8,17.16,85,37,4.37,ET,1717205386
202,berdigestyakh,62.0989,126.6992,23.48,31,62,6.05,RU,1717205386
203,kuqa,41.7278,82.9364,20.32,20,100,1.6,CN,1717205386
204,lihue,21.9789,-159.3672,27.58,72,75,8.23,US,1717205386
205,villa gesell,-37.2639,-56.973,11.7,89,100,5.71,AR,1717205386
206,new norfolk,-42.7826,147.0587,12.06,56,3,0.88,AU,1717205315
207,nouadhibou,20.931,-17.0347,18.58,90,0,7.5,MR,1717205386
208,utrik,11.2278,169.8474,28.15,80,95,5.55,MH,1717205300
209,morehead city,34.7229,-76.726,21.02,68,0,2.06,US,1717205387
210,pajapan,18.25,-94.7,30.09,70,45,3.86,MX,1717205387
211,st. john's,47.5649,-52.7093,10.71,96,100,2.24,CA,1717205162
212,beeskow,52.1667,14.25,16.68,89,68,2.98,DE,1717205387
213,rio grande,-32.035,-52.0986,12.75,88,100,4.95,BR,1717205320
214,ilulissat,69.2167,-51.1,-6.64,82,88,2.05,GL,1717205387
215,phan rang-thap cham,11.5667,108.9833,30.0,65,100,1.94,VN,1717205388
216,selfoss,63.9331,-20.9971,8.91,97,100,6.72,IS,1717205388
217,masterton,-40.9597,175.6575,15.61,65,100,6.4,NZ,1717205388
218,tbeng meanchey,13.8167,104.9667,26.38,92,100,1.48,KH,1717205388
219,haiku-pauwela,20.9219,-156.3051,27.32,75,40,11.32,US,1717205388
220,necochea,-38.5473,-58.7368,10.25,81,100,5.33,AR,1717205138
221,talnakh,69.4865,88.3972,-2.11,86,100,11.56,RU,1717205330
222,crane,31.3974,-102.3501,30.27,44,0,9.09,US,1717205389
223,caraballeda,10.6112,-66.8522,28.54,86,96,2.65,VE,1717205389
224,port saint john's,-31.6229,29.5448,17.99,77,100,0.96,ZA,1717205389
225,al kharijah,25.4514,30.5464,25.6,23,0,3.86,EG,1717205389
226,pauini,-7.7136,-66.9764,22.35,76,0,0.72,BR,1717205389
227,codrington,-38.2667,141.9667,11.24,73,91,1.22,AU,1717205390
228,krutaya gorka,55.3649,73.2231,9.82,70,100,5.03,RU,1717205390
229,shumerlya,55.5005,46.4129,14.56,86,4,1.67,RU,1717205390
230,jinghong,21.991,100.7341,25.97,75,100,1.12,CN,1717205390
231,ulysses,37.5814,-101.3552,26.02,44,40,4.12,US,1717205390
232,winnemucca,40.973,-117.7357,28.03,11,0,2.57,US,1717205390
233,rossosh',51.1209,38.5116,15.04,94,53,1.66,RU,1717205391
234,surgut,61.25,73.4167,2.1,93,40,2.0,RU,1717205170
235,novyy rogachik,48.6768,44.0608,21.5,80,100,4.74,RU,1717205391
236,lata,40.1629,-8.3327,16.7,46,0,2.85,PT,1717205391
237,juruti,-2.1522,-56.0922,24.97,92,71,1.12,BR,1717205391
238,qamdo,31.1667,97.2333,11.96,53,96,3.02,CN,1717205319
239,hadibu,12.65,54.0333,28.46,78,44,4.71,YE,1717205392
240,boujniba,32.9005,-6.7746,22.61,42,97,4.65,MA,1717205392
241,wangon,-7.5161,109.0539,26.88,83,100,2.31,ID,1717205392
242,ghanzi,-21.5667,21.7833,13.69,35,0,4.29,BW,1717205392
243,bainbridge,47.6262,-122.5212,22.88,44,0,4.63,US,1717205392
244,manta,-0.95,-80.7333,24.88,88,75,4.63,EC,1717205200
245,kyzyl-suu,42.3414,78.0056,12.46,38,0,1.12,KG,1717205393
246,sharm el-sheikh,27.8518,34.305,27.0,39,0,3.13,EG,1717205393
247,bereznik,62.8551,42.7072,13.19,73,8,1.26,RU,1717205393
248,maha sarakham,16.3333,103.6667,27.73,87,100,3.75,TH,1717205393
249,aconibe,1.2968,10.9369,20.18,100,100,0.92,GQ,1717205393
250,northam,51.0333,-4.2167,10.9,91,16,1.19,GB,1717205394
251,stornoway,58.2093,-6.3865,10.21,89,100,1.03,GB,1717205394
252,ternate,0.8,127.4,28.81,72,69,1.16,ID,1717205394
253,richards bay,-28.783,32.0377,20.01,92,71,1.45,ZA,1717205394
254,mahavelona,-17.6848,49.5087,20.99,95,100,3.49,MG,1717205394
255,manokwari,-0.8667,134.0833,28.43,75,91,3.77,ID,1717205395
256,sisimiut,66.9395,-53.6735,-1.06,77,100,1.94,GL,1717205395
257,adre,13.4667,22.2,29.04,15,85,4.34,TD,1717205395
258,mitu,1.1983,-70.1733,22.04,98,78,0.38,CO,1717205395
259,nuuk,64.1835,-51.7216,0.34,69,100,2.57,GL,1717205395
260,puerto baquerizo moreno,-0.9,-89.6,21.56,87,28,2.74,EC,1717205396
261,beloyarskiy,63.7119,66.6722,-1.11,92,92,1.79,RU,1717205396
262,amahai,-3.3333,128.9167,30.67,80,99,1.51,ID,1717205396
263,eldorado,-23.7869,-54.2836,13.42,69,5,2.54,BR,1717205396
264,awjilah,29.1081,21.2869,29.31,16,0,3.44,LY,1717205396
265,coihueco,-36.6167,-71.8333,11.41,94,100,3.09,CL,1717205215
266,clinton,42.587,-82.9199,21.18,58,75,4.63,US,1717205397
267,hillsdale,41.0026,-74.0404,22.88,48,0,3.6,US,1717205162
268,askoy,60.4092,5.226,14.97,100,100,4.63,NO,1717205397
269,susanville,40.4163,-120.653,26.57,23,82,2.24,US,1717205397
270,eydhafushi,5.1033,73.0708,28.44,83,100,8.92,MV,1717205398
271,puerto deseado,-47.7503,-65.8938,7.36,86,100,2.9,AR,1717205398
272,college,64.8569,-147.8028,20.18,39,75,3.09,US,1717205296
273,chulym,55.0997,80.9572,6.31,67,99,2.97,RU,1717205398
274,malango,-2.9627,119.9001,26.28,68,49,1.34,ID,1717205398
275,cabo san lucas,22.8909,-109.9124,34.17,18,20,7.2,MX,1717205288
276,praia da vitoria,38.7333,-27.0667,18.2,88,20,5.13,PT,1717205399
277,altamont,42.2068,-121.7372,26.33,24,0,2.24,US,1717205399
278,skowhegan,44.7651,-69.7192,19.31,84,81,0.99,US,1717205399
279,papatowai,-46.5619,169.4708,14.97,59,1,8.94,NZ,1717205295
280,tadine,-21.55,167.8833,24.43,63,7,8.79,NC,1717205332
281,nova sintra,14.8667,-24.7167,23.85,76,10,6.04,CV,1717205304
282,daru,-9.0763,143.2092,26.98,88,92,7.54,PG,1717205400
283,urangan,-25.3,152.9,22.33,86,100,2.68,AU,1717205400
284,qinggang,46.6833,126.0833,16.64,54,79,2.81,CN,1717205400
285,kabare,-2.4683,28.8242,16.31,92,96,0.91,CD,1717205400
286,yarmouth,41.7057,-70.2286,17.22,70,0,2.06,US,1717205401
287,dourbali,11.8091,15.8632,30.94,47,63,2.7,TD,1717205401
288,kristiansund,63.1115,7.732,14.03,87,100,2.57,NO,1717205401
289,bikenibeu village,1.3673,173.1241,31.98,66,40,4.12,KI,1717205401
290,tabou,4.423,-7.3528,25.37,87,92,1.37,CI,1717205401
291,mansoa,12.0733,-15.3189,24.11,66,100,2.4,GW,1717205402
292,galle,6.0367,80.217,28.17,83,91,5.92,LK,1717205403
293,mount gambier,-37.8333,140.7667,11.28,79,76,0.34,AU,1717205295
294,puerto lempira,15.2667,-83.7667,26.2,85,100,0.19,HN,1717205404
295,geraldton,-28.7667,114.6,17.23,39,77,8.75,AU,1717205269
296,polyarnyy,69.1989,33.4478,6.64,97,100,2.23,RU,1717205405
297,belyy yar,53.6039,91.3903,7.94,76,0,0.0,RU,1717205405
298,pico truncado,-46.7949,-67.9573,4.41,63,8,3.8,AR,1717205406
299,princeville,45.7668,-61.2985,10.86,79,100,2.06,CA,1717205406
300,abadan,30.3392,48.3043,31.97,22,0,5.14,IR,1717205406
301,salavat,53.3837,55.9077,14.05,90,1,1.11,RU,1717205406
302,newman,37.3138,-121.0208,34.6,30,0,2.68,US,1717205302
303,panyutyne,48.9333,36.2833,16.0,72,0,2.14,UA,1717205406
304,san-pedro,4.7485,-6.6363,24.96,90,63,1.56,CI,1717205407
305,axim,4.8699,-2.2405,26.24,86,100,2.55,GH,1717205407
306,akjoujt,19.6969,-14.4164,22.79,44,0,5.59,MR,1717205407
307,semey,50.4111,80.2275,9.12,66,0,0.0,KZ,1717205301
308,labytnangi,66.6572,66.4183,1.32,81,100,8.11,RU,1717205407
309,molde,62.7375,7.1591,13.91,88,100,2.06,NO,1717205408
310,nikolayevsk-on-amure,53.1406,140.73,22.9,31,54,2.68,RU,1717205306
311,porto torres,40.835,8.3972,16.1,83,0,4.08,IT,1717205408
312,tsiombe,-25.3,45.4833,16.88,68,0,1.94,MG,1717205408
313,matola,-25.9622,32.4589,19.97,94,100,2.57,MZ,1717205408
314,ikom,5.9667,8.7063,23.73,99,100,1.19,NG,1717205409
315,graneros,-34.0667,-70.7333,11.51,65,3,0.5,CL,1717205409
316,robore,-18.3333,-59.75,19.04,62,3,1.82,BO,1717205409
317,kamensk-ural'skiy,56.4185,61.9329,11.62,65,94,5.2,RU,1717205409
318,usogorsk,63.4106,48.6872,10.37,69,19,1.46,RU,1717205409
319,midland,31.9974,-102.0779,31.37,44,0,6.17,US,1717205410
320,puerto madryn,-42.7692,-65.0385,12.21,64,100,10.62,AR,1717205194
321,pemangkat,1.1667,108.9667,27.62,84,93,2.12,ID,1717205410
322,belle chasse,29.8549,-89.9906,26.11,78,75,2.57,US,1717205271
323,mongoumba,3.6415,18.5936,21.91,91,87,0.75,CF,1717205410
324,mirante do paranapanema,-22.2919,-51.9064,12.77,64,1,2.82,BR,1717205410
325,santa terezinha,-29.9002,-50.0904,14.98,84,100,6.97,BR,1717205411
326,ceeldheer,3.8488,47.1806,25.34,84,59,7.71,SO,1717205411
327,akhmim,26.5622,31.745,26.15,22,0,4.15,EG,1717205411
328,kangding,30.0513,101.9603,12.96,95,99,1.7,CN,1717205411
329,cannonvale,-20.2833,148.7,25.33,72,18,2.06,AU,1717205411
330,tabas,33.5959,56.9244,28.98,14,0,2.68,IR,1717205411
331,santa cruz,-17.8,-63.1667,18.7,94,6,2.57,BO,1717205330
332,nola,40.922,14.5329,19.8,84,15,1.25,IT,1717205412
333,alofi,-19.0595,-169.9187,23.94,73,100,8.23,NU,1717205333
334,male,4.1748,73.5089,28.97,89,75,9.77,MV,1717205139
335,lompoc,34.6391,-120.4579,23.34,80,100,3.6,US,1717205314
336,ouani,-12.1322,44.4258,26.96,74,0,3.88,KM,1717205412
337,champerico,14.3,-91.9167,29.1,75,97,2.06,GT,1717205413
338,chernyshevskiy,63.0128,112.4714,22.09,34,3,6.83,RU,1717205413
339,shahrud,36.4182,54.9763,22.7,29,0,0.94,IR,1717205413
340,hiratacho,35.4333,132.8167,22.01,64,0,2.06,JP,1717205413
341,savanna-la-mar,18.219,-78.1332,28.97,87,93,0.25,JM,1717205413
342,sarankhola,22.3082,89.7897,31.63,71,5,4.56,BD,1717205413
343,colonia,50.9333,6.95,15.54,87,100,4.63,DE,1717205164
344,verkh-chebula,56.0308,87.6218,8.43,57,74,2.47,RU,1717205414
345,tura,25.5198,90.2201,26.02,91,49,1.32,IN,1717205303
346,peniche,39.3558,-9.3811,17.27,89,6,2.44,PT,1717205414
347,bintulu,3.1667,113.0333,28.23,89,40,0.0,MY,1717205414
348,yar,58.249,52.1026,12.59,82,9,2.59,RU,1717205415
349,tromso,69.6496,18.957,8.01,93,75,1.54,NO,1717205415
350,barranca,-10.75,-77.7667,17.76,82,67,3.69,PE,1717205415
351,olyokminsk,60.3736,120.4264,25.04,30,32,1.82,RU,1717205415
352,pampas,-12.4,-74.9,4.49,89,0,0.45,PE,1717205415
353,chonchi,-42.6128,-73.8092,5.56,92,18,1.15,CL,1717205310
354,berezovyy,51.6667,135.7,27.89,22,40,1.31,RU,1717205416
355,chumphon,10.3333,98.8333,25.01,87,100,3.26,TH,1717205416
356,mount pearl,47.5166,-52.7813,10.25,96,100,1.54,CA,1717205303
357,chiroqchi,39.0336,66.5722,23.34,34,0,2.15,UZ,1717205416
358,mombetsu,44.3525,143.3525,9.01,87,20,2.06,JP,1717205416
359,limbe,4.0242,9.2149,25.66,89,98,1.13,CM,1717205416
360,arkhangel'sk,64.5401,40.5433,13.96,87,20,1.0,RU,1717205331
361,puerto el triunfo,13.2833,-88.55,28.79,77,100,1.35,SV,1717205417
362,uturoa,-16.7333,-151.4333,26.97,73,10,4.03,PF,1717205417
363,bosaso,11.2842,49.1816,30.23,58,19,1.23,SO,1717205417
364,priargunsk,50.3691,119.1012,25.12,25,14,4.59,RU,1717205417
365,taoudenni,22.6783,-3.9836,31.79,15,6,4.57,ML,1717205417
366,daoukro,7.0591,-3.9631,23.15,99,100,1.3,CI,1717205418
367,aksaray,38.3726,34.0254,14.75,60,0,1.36,TR,1717205418
368,coyhaique,-45.5752,-72.0662,4.34,65,0,1.54,CL,1717205418
369,chilecito,-29.1619,-67.4974,10.54,44,54,2.16,AR,1717205418
370,broome,42.2506,-75.833,13.59,76,7,0.88,US,1717205328
371,cobija,-11.0267,-68.7692,20.03,69,5,0.55,BO,1717205419
372,kralendijk,12.15,-68.2667,28.99,74,0,8.75,BQ,1717205181
373,bhattarai danda,27.8828,83.9314,30.46,31,0,1.0,NP,1717205419
374,vega de alatorre,20.0333,-96.6333,29.55,73,64,7.36,MX,1717205419
375,rabaul,-4.1967,152.1721,29.45,72,7,2.99,PG,1717205420
376,krasnokamensk,50.0979,118.0369,23.13,25,12,4.15,RU,1717205289
377,el charco,2.4769,-78.1105,26.38,90,99,1.21,CO,1717205420
378,alenquer,-1.9417,-54.7383,24.81,95,29,0.97,BR,1717205189
379,posse,-14.0931,-46.3694,24.29,43,96,3.79,BR,1717205420
380,nuriootpa,-34.4833,139.0,13.54,56,0,3.56,AU,1717205421
381,valparaiso,-33.0393,-71.6273,15.0,79,0,2.57,CL,1717205073
382,kirakira,-10.4544,161.9205,29.04,79,27,3.62,SB,1717205421
383,tual,-5.6667,132.75,27.83,80,74,7.83,ID,1717205421
384,isangel,-19.55,169.2667,24.73,77,17,9.02,VU,1717205421
385,fortuna,40.5982,-124.1573,17.74,69,0,7.2,US,1717205323
386,tidjikja,18.5564,-11.4271,28.33,17,5,4.84,MR,1717205421
387,pitimbu,-7.4706,-34.8086,25.33,84,54,4.34,BR,1717205422
388,namibe,-15.1961,12.1522,19.02,73,90,1.36,AO,1717205422
389,mundri,-6.9558,111.71,29.46,67,97,2.32,ID,1717205422
390,tralee,52.2704,-9.7026,7.66,94,36,0.91,IE,1717205422
391,nadi,-17.8,177.4167,29.0,54,40,6.69,FJ,1717205422
392,sitka,57.0531,-135.33,12.94,62,100,6.17,US,1717205298
393,nogliki,51.8333,143.1667,11.3,58,99,1.79,RU,1717205423
394,rio branco,-9.9747,-67.81,21.34,94,20,0.0,BR,1717205404
395,bo phloi,14.3236,99.5161,28.97,69,100,3.26,TH,1717205423
396,chom thong,18.4174,98.6743,28.14,73,100,1.41,TH,1717205423
397,castlegar,49.2998,-117.6689,17.77,40,96,2.23,CA,1717205423
398,motueka,-41.1333,173.0167,18.39,61,79,1.64,NZ,1717205423
399,dongxi,28.7614,106.6611,21.83,85,100,0.32,CN,1717205424
400,sierra grande,-41.606,-65.3557,11.27,54,100,8.11,AR,1717205424
401,al bawiti,28.3492,28.8659,24.82,29,0,3.28,EG,1717205424
402,zeya,53.75,127.2667,25.83,29,8,3.73,RU,1717205425
403,grand falls-windsor,48.9332,-55.6649,4.93,96,100,4.21,CA,1717205302
404,lyubinskiy,55.1542,72.6925,9.82,65,100,5.04,RU,1717205425
405,rosetta,31.4044,30.4164,21.98,51,0,4.45,EG,1717205425
406,olinda,-8.0089,-34.8553,23.85,100,40,2.57,BR,1717205109
407,miyazu,35.5333,135.1833,19.11,59,100,2.09,JP,1717205425
408,brezina,33.0989,1.2608,25.17,28,97,2.3,DZ,1717205425
409,murzuq,25.9155,13.9184,30.71,23,63,4.04,LY,1717205426
410,hermiston,45.8404,-119.2895,26.36,20,0,1.54,US,1717205426
411,idfu,24.9803,32.8747,26.39,19,0,4.6,EG,1717205426
412,huangshan,29.7114,118.3125,17.99,94,99,1.23,CN,1717205426
413,kuanda,56.3161,116.0806,22.94,44,100,0.43,RU,1717205426
414,shimoda,34.6667,138.95,21.2,83,100,3.86,JP,1717205427
415,kerikeri,-35.2268,173.9474,21.06,67,100,0.89,NZ,1717205302
416,jamaame,0.0697,42.745,24.97,87,47,4.13,SO,1717205427
417,novyy urengoy,66.0833,76.6333,-1.51,95,100,9.22,RU,1717205427
418,khandyga,62.6667,135.6,21.72,15,1,6.08,RU,1717205427
419,lumut,4.2323,100.6298,27.01,89,20,1.03,MY,1717205427
420,yanbu,24.0891,38.0637,27.02,39,0,2.57,SA,1717205428
421,vila franca do campo,37.7167,-25.4333,19.23,99,45,3.61,PT,1717205428
422,athens,37.9795,23.7162,22.4,78,0,1.03,GR,1717205153
423,pimentel,-6.8367,-79.9342,17.16,88,75,8.75,PE,1717205428
424,san martin,-33.081,-68.4681,9.3,51,0,2.38,AR,1717205428
425,carnarvon,-24.8667,113.6333,21.23,33,0,3.02,AU,1717205308
426,nagqu,31.5,92.0,7.8,58,100,6.66,CN,1717205429
427,yulinshi,38.2906,109.7494,26.04,15,100,4.51,CN,1717205429
428,kone,-21.0595,164.8658,26.07,55,84,4.88,NC,1717205429
429,ritchie,-29.038,24.6028,11.56,52,100,1.69,ZA,1717205429
430,gadzhiyevo,69.2551,33.3362,6.72,97,100,2.13,RU,1717205323
431,kisangani,0.5167,25.2,21.82,98,76,0.53,CD,1717205430
432,borujerd,33.8973,48.7516,15.13,33,0,0.71,IR,1717205430
433,touros,-5.1989,-35.4608,25.0,88,84,5.05,BR,1717205430
434,westport,41.1415,-73.3579,21.59,50,0,2.06,US,1717205162
435,greenville,35.6127,-77.3663,18.4,63,0,0.0,US,1717205186
436,baturaja,-4.1333,104.1667,27.77,77,100,1.58,ID,1717205431
437,fisterra,42.9049,-9.2629,14.3,75,0,11.01,ES,1717205431
438,pacific grove,36.6177,-121.9166,19.56,80,0,4.12,US,1717205431
439,plastun,44.7561,136.2939,15.52,46,100,2.55,RU,1717205432
440,wynyard,-41.0,145.7167,12.43,56,86,2.36,AU,1717205432
441,cole harbour,44.6724,-63.4751,12.71,79,3,2.57,CA,1717205432
442,mejit,10.2753,170.8646,28.08,79,100,5.07,MH,1717205318
443,egilsstadir,65.2653,-14.3948,7.95,71,75,5.14,IS,1717205432
444,ouadda,8.0777,22.4007,19.97,93,72,1.23,CF,1717205432
445,lesnoy,57.6198,63.0784,6.54,91,100,3.66,RU,1717205433
446,nadym,65.5333,72.5167,-0.02,86,100,8.25,RU,1717205316
447,sinabang,2.4803,96.3801,26.84,81,100,0.98,ID,1717205433
448,fort bragg,35.139,-79.006,20.75,58,0,0.0,US,1717205115
449,anna regina,7.2644,-58.5077,26.52,87,49,2.44,GY,1717205433
450,korla,41.7597,86.1469,21.57,28,100,3.68,CN,1717205376
451,khandud,36.9513,72.318,8.51,56,14,1.62,AF,1717205433
452,sabang,5.8933,95.3214,29.72,67,100,7.29,ID,1717205434
453,smidovich,48.6,133.8167,21.86,41,81,2.66,RU,1717205434
454,santa maria del oro,25.9333,-105.3667,28.62,11,34,8.54,MX,1717205434
455,yanjiang,30.1211,104.6481,26.07,58,95,1.2,CN,1717205434
456,gubbi,13.3106,76.9444,26.22,66,10,2.13,IN,1717205434
457,kavaratti,10.5669,72.642,28.93,83,100,7.65,IN,1717205435
458,usol'ye,59.4268,56.6808,7.4,66,0,3.05,RU,1717205435
459,luis correia,-2.8792,-41.6669,25.33,87,100,3.86,BR,1717205435
460,boca chica,18.4537,-69.6111,28.06,89,75,2.57,DO,1717205435
461,baikonur,45.6167,63.3167,24.37,30,0,3.02,KZ,1717205435
462,ulety,51.3572,112.4849,20.95,39,95,0.97,RU,1717205436
463,guerrero negro,27.9769,-114.0611,16.62,78,6,9.0,MX,1717205436
464,as sulayyil,20.4607,45.5779,30.14,12,100,1.69,SA,1717205299
465,tianpeng,30.9866,103.9393,23.26,50,93,1.53,CN,1717205436
466,bang saphan,11.2126,99.5117,25.45,95,100,0.98,TH,1717205436
467,west plains,36.7281,-91.8524,21.46,84,100,4.63,US,1717205436
468,madalena,41.2162,-8.3345,20.32,54,0,3.81,PT,1717205436
469,hinton,53.4001,-117.5857,14.07,30,91,3.37,CA,1717205437
470,del rio,29.3627,-100.8968,32.06,54,0,7.2,US,1717205365
471,hidrolandia,-4.4081,-40.4378,22.62,94,97,1.24,BR,1717205437
472,dalandzadgad,43.5708,104.425,20.31,24,100,4.65,MN,1717205437
473,slave lake,55.2834,-114.769,13.99,54,20,12.35,CA,1717205437
474,barra de santo antonio,-9.4047,-35.5072,24.6,84,55,3.81,BR,1717205437
475,fuglafjordur,62.244,-6.814,10.26,86,99,6.01,FO,1717205438
476,barclayville,4.6797,-8.2339,24.76,92,36,0.96,LR,1717205438
477,abong mbang,3.9833,13.1833,20.15,100,85,0.97,CM,1717205438
478,kiffa,16.6166,-11.4045,32.0,14,9,4.57,MR,1717205438
479,ocos,14.5094,-92.1933,27.1,76,96,2.31,GT,1717205438
480,dordrecht,51.81,4.6736,14.45,94,100,2.24,NL,1717205401
481,butembo,0.15,29.2833,14.87,97,91,1.14,CD,1717205439
482,maceio,-9.6658,-35.7353,24.69,94,100,1.54,BR,1717205327
483,dali,25.7,100.1833,21.96,74,67,0.82,CN,1717205439
484,pinotepa nacional,16.3167,-98.0167,26.59,73,99,1.35,MX,1717205439
485,lerwick,60.1545,-1.1494,10.0,90,100,4.11,GB,1717205439
486,port-vila,-17.7338,168.3219,24.78,88,100,6.17,VU,1717205439
487,muli,2.9167,73.5667,28.36,84,39,8.99,MV,1717205440
488,sur,22.5667,59.5289,33.18,47,0,3.86,OM,1717205315
489,lae,-6.7221,146.9847,27.66,70,95,2.57,PG,1717205440
490,karasburg,-28.0167,18.75,4.74,60,0,2.98,NA,1717205440
491,brookings,44.3114,-96.7984,18.43,70,20,2.57,US,1717205440
492,windhoek,-22.5594,17.0832,10.79,65,0,0.0,NA,1717205440
493,makoua,0.0069,15.6333,22.56,97,36,1.18,CG,1717205441
494,naraini,25.1833,80.4833,39.1,22,90,8.5,IN,1717205441
495,makrana,27.05,74.7167,30.79,42,0,7.13,IN,1717205441
496,thunder bay,48.4001,-89.3168,19.99,49,75,4.12,CA,1717205152
497,noumea,-22.2763,166.4572,26.99,99,13,7.77,NC,1717204824
498,guane,22.2025,-84.0875,25.62,83,3,0.42,CU,1717205441
499,murun-kuren,49.6342,100.1625,17.9,39,2,2.48,MN,1717205442
500,oranjemund,-28.55,16.4333,9.95,85,0,0.79,NA,1717205442
501,ivolginsk,51.7492,107.2837,15.81,59,58,5.0,RU,1717205442
502,mochudi,-24.4167,26.15,12.84,39,0,1.03,BW,1717205442
503,gland,46.4208,6.2701,12.17,91,96,0.94,CH,1717205442
504,minas de marcona,-15.2119,-75.1103,11.67,91,54,4.81,PE,1717205442
505,berlin,52.5244,13.4105,17.77,92,0,4.12,DE,1717205359
506,kawalu,-7.3817,108.2082,26.58,80,100,1.25,ID,1717205443
507,acajutla,13.5928,-89.8275,28.39,76,100,3.11,SV,1717205443
508,illizi,26.4833,8.4667,30.89,30,9,3.16,DZ,1717205443
509,midvagur,62.0511,-7.1939,10.46,81,100,5.66,FO,1717205443
510,bokhan,53.153,103.7714,9.73,68,100,7.41,RU,1717205443
511,qrendi,35.8347,14.4583,20.62,94,75,3.09,MT,1717205444
512,aitape,-3.1374,142.3475,29.35,76,79,2.45,PG,1717205444
513,tazacorte,28.629,-17.9293,18.54,86,0,2.06,ES,1717205444
514,alipur,29.3846,70.9116,33.71,42,0,7.42,PK,1717205444
515,page,36.9147,-111.4558,32.88,9,0,3.09,US,1717205445
516,ulsteinvik,62.3432,5.8487,13.51,91,100,0.45,NO,1717205445
517,sinop,41.7711,34.8709,13.9,57,0,3.73,TR,1717205445
518,amga,60.8953,131.9608,25.39,30,20,4.22,RU,1717205445
519,khromtau,50.2503,58.4347,18.84,62,9,3.47,KZ,1717205445
520,padampur,29.6833,73.6167,35.35,24,0,7.08,IN,1717205445
521,cuamba,-14.8031,36.5372,15.76,69,0,0.39,MZ,1717205446
522,lashio,22.9333,97.75,27.23,67,100,1.08,MM,1717205446
523,vorkuta,67.5,64.0,-4.94,95,100,4.92,RU,1717205446
524,howard springs,-12.497,131.047,28.95,73,8,6.28,AU,1717205446
525,casas grandes,30.3667,-107.95,27.81,6,0,7.74,MX,1717205446
526,coron,11.9986,120.2043,32.19,64,37,4.39,PH,1717205446
527,zapata,26.9073,-99.2714,32.06,55,40,5.14,US,1717205447
528,salug,8.1147,122.7833,31.82,67,59,2.47,PH,1717205447
529,bridgewater,44.3835,-64.5155,13.82,73,6,2.06,CA,1717205447
530,mahibadhoo,3.7833,72.9667,28.47,83,100,8.35,MV,1717205447
531,yung shue wan,22.2333,114.1167,29.33,85,100,0.45,HK,1717205447
532,cidreira,-30.1811,-50.2056,15.72,84,100,7.4,BR,1717205447
533,gillette,44.2911,-105.5022,18.51,51,0,4.63,US,1717205448
534,fuxin,42.0156,121.6589,24.24,21,0,5.16,CN,1717205448
535,bangassou,4.7413,22.8184,21.23,97,100,1.06,CF,1717205448
536,manaure,11.7751,-72.4445,29.49,72,92,3.09,CO,1717205448
537,las palmas de gran canaria,28.0997,-15.4134,21.07,68,20,7.2,ES,1717205448
538,brady,31.1352,-99.3351,21.41,88,0,4.12,US,1717205174
539,popondetta,-8.7537,148.2534,31.34,62,75,2.38,PG,1717205448
540,kuusamo,65.9667,29.1833,12.02,94,0,1.54,FI,1717205449
541,chibougamau,49.9168,-74.3659,15.79,44,0,1.03,CA,1717205449
542,kavieng,-2.5744,150.7967,29.76,70,93,2.49,PG,1717205449
543,rio gallegos,-51.6226,-69.2181,1.03,93,100,1.03,AR,1717205301
544,palikir - national government center,6.9248,158.1611,30.47,84,100,4.12,FM,1717205449
545,acarau,-2.8856,-40.12,25.33,86,76,4.55,BR,1717205450
546,sungai raya,0.7,108.9,29.96,72,75,1.91,ID,1717205450
547,sinaloa de leyva,25.8333,-108.2333,31.14,33,100,3.74,MX,1717205450
548,hasaki,35.7333,140.8333,22.38,80,100,5.74,JP,1717205313
549,medina,24.4686,39.6142,32.24,8,0,1.54,SA,1717205402
550,anamur,36.0751,32.8369,21.21,71,0,1.56,TR,1717205451
551,armidale,-30.5167,151.65,10.54,96,100,6.69,AU,1717205451
552,znamenskoye,57.1281,73.8282,8.79,81,100,3.29,RU,1717205451
553,nuku'alofa,-21.1333,-175.2,23.19,73,75,5.66,TO,1717205382
554,antofagasta,-23.65,-70.4,14.6,74,99,1.34,CL,1717205451
555,tapon,10.0631,123.4453,31.98,65,22,5.36,PH,1717205451
556,pampa del indio,-26.0647,-59.919,15.49,86,0,2.38,AR,1717205452
557,saimbeyli,37.9863,36.0906,6.77,80,3,2.59,TR,1717205168
558,happy valley-goose bay,53.3168,-60.3315,7.17,76,75,1.54,CA,1717205308
559,eyl,7.9803,49.8164,27.81,65,5,9.13,SO,1717205452
560,karratha,-20.7377,116.8463,23.63,37,0,9.38,AU,1717205452
